Zip,Latitude,Longitude,Favorite_Activity,Likelihood_To_Purchase_At_Store,Raise_Awareness,Rate_Experience,Reference,Age_Range,City,State,County,Country
2215,42.347593,-71.102934,1,4,4,4,1,2,Boston,MA,Suffolk County,US
2120,42.332484,-71.096416,1,4,5,5,2,3,Boston,MA,Suffolk County,US
2886,41.70247,-71.47902,1,5,5,5,3,5,Warwick,RI,Kent County,US
2021,42.179146,-71.121185,2,4,5,4,1,5,Canton,MA,Norfolk County,US
2445,42.325483,-71.135045,1,4,5,5,1,5,Brookline,MA,Norfolk County,US
2170,42.267248,-71.016742,2,4,4,4,1,4,Quincy,MA,Norfolk County,US
2122,42.29658,-71.055215,2,3,5,5,1,3,Boston,MA,Suffolk County,US
2151,42.40843,-71.01199,2,5,5,5,1,3,Revere,MA,Suffolk County,US
2130,42.309661,-71.121097,2,4,4,4,2,2,Jamaica Plain,MA,Suffolk County,US
2134,42.35843,-71.12589,1,3,3,3,1,2,Allston,MA,Suffolk County,US
2472,42.369451,-71.177925,1,5,3,5,4,4,Watertown,MA,Middlesex County,US
2151,42.40843,-71.01199,1,5,5,5,4,3,Revere,MA,Suffolk County,US
2451,42.398588,-71.24505,1,5,4,5,5,5,Waltham,MA,Middlesex County,US
2135,42.3501,-71.15644,1,5,5,5,3,2,Brighton,MA,Suffolk County,US
2135,42.3501,-71.15644,1,4,4,4,3,2,Brighton,MA,Suffolk County,US
2382,42.0785,-70.940837,1,4,4,5,6,2,Whitman,MA,Plymouth County,US
2134,42.35843,-71.12589,4,5,4,3,4,1,Allston,MA,Suffolk County,US
2144,42.399655,-71.12255,1,4,4,5,7,3,Somerville,MA,Middlesex County,US
2360,41.886207,-70.638717,4,5,5,5,1,3,Plymouth,MA,Plymouth County,US
3868,43.324241,-70.940177,2,4,4,3,3,5,Rochester,NH,Strafford County,US
2072,42.118416,-71.105733,2,4,3,3,3,4,Stoughton,MA,Norfolk County,US
2123,42.338947,-70.919635,1,5,5,4,1,4,Boston,MA,Suffolk County,US
2111,42.351047,-71.059365,1,3,4,4,6,6,Boston,MA,Suffolk County,US
2121,42.307098,-71.081645,1,1,2,3,8,3,Boston,MA,Suffolk County,US
2128,42.364197,-71.025694,2,5,5,5,7,4,Boston,MA,Suffolk County,US
2121,42.307098,-71.081645,5,5,5,5,2,3,Boston,MA,Suffolk County,US
2148,42.436545,-71.085396,1,3,4,3,1,3,Malden,MA,Middlesex County,US
2141,42.368673,-71.083596,2,4,4,3,1,3,Cambridge,MA,Middlesex County,US
2124,42.286784,-71.071045,5,5,5,5,1,5,Boston,MA,Suffolk County,US
1545,42.286992,-71.715313,1,5,5,5,6,5,Shrewsbury,MA,Worcester County,US
2461,42.317362,-71.206508,1,4,5,5,3,4,Newton Highlands,MA,Middlesex County,US
2111,42.351047,-71.059365,3,5,5,5,2,6,Boston,MA,Suffolk County,US
2215,42.347593,-71.102934,1,4,4,4,6,2,Boston,MA,Suffolk County,US
1033,42.262285,-72.504086,1,2,3,3,1,4,Granby,MA,Hampshire County,US
2215,42.347593,-71.102934,4,3,4,5,9,2,Boston,MA,Suffolk County,US
2135,42.3501,-71.15644,5,3,5,5,1,6,Brighton,MA,Suffolk County,US
2135,42.3501,-71.15644,1,2,2,5,3,2,Brighton,MA,Suffolk County,US
1720,42.48509,-71.43284,1,5,5,5,1,2,Acton,MA,Middlesex County,US
2148,42.436545,-71.085396,1,3,4,4,4,5,Malden,MA,Middlesex County,US
2302,42.08475,-71.000189,1,3,3,5,4,6,Brockton,MA,Plymouth County,US
1720,42.48509,-71.43284,1,3,4,4,3,4,Acton,MA,Middlesex County,US
3862,42.97259,-70.82978,1,5,5,5,6,4,North Hampton,NH,Rockingham County,US
47202,39.192972,-85.885168,3,2,3,3,4,2,Columbus,IN,Bartholomew County,US
6511,41.310547,-72.926046,4,4,5,5,4,3,New Haven,CT,New Haven County,US
2120,42.332484,-71.096416,4,5,5,5,6,2,Boston,MA,Suffolk County,US
2903,41.819459,-71.4115,1,3,4,4,6,2,Providence,RI,Providence County,US
6118,41.748999,-72.609884,3,3,3,3,4,4,East Hartford,CT,Hartford County,US
2119,42.323077,-71.084608,1,3,3,4,6,3,Boston,MA,Suffolk County,US
2110,42.361962,-71.047847,1,5,4,5,3,4,Boston,MA,Suffolk County,US
2421,42.442567,-71.226453,1,5,5,5,4,5,Lexington,MA,Middlesex County,US
2125,42.31476,-71.067244,3,3,3,4,6,3,Boston,MA,Suffolk County,US
2144,42.399655,-71.12255,1,3,5,5,3,2,Somerville,MA,Middlesex County,US
96749,19.581873,-155.032104,1,5,5,5,6,2,Keaau,HI,Hawaii County,US
2111,42.351047,-71.059365,1,4,5,5,1,2,Boston,MA,Suffolk County,US
2421,42.442567,-71.226453,5,5,4,4,6,5,Lexington,MA,Middlesex County,US
3054,42.86509,-71.4934,2,5,5,3,7,2,Merrimack,NH,Hillsborough County,US
2124,42.286784,-71.071045,2,5,5,5,1,4,Boston,MA,Suffolk County,US
2148,42.436545,-71.085396,5,4,5,3,7,1,Malden,MA,Middlesex County,US
2131,42.284197,-71.120896,1,5,4,5,6,5,Roslindale,MA,Suffolk County,US
2668,41.70566,-70.37447,5,4,4,4,4,5,West Barnstable,MA,Barnstable County,US
2472,42.369451,-71.177925,1,3,5,5,4,3,Watertown,MA,Middlesex County,US
2148,42.436545,-71.085396,3,3,4,5,7,1,Malden,MA,Middlesex County,US
2115,42.336342,-71.104176,1,3,5,4,3,2,Boston,MA,Suffolk County,US
2148,42.436545,-71.085396,3,4,4,4,2,1,Malden,MA,Middlesex County,US
2155,42.422095,-71.109297,1,5,3,4,6,5,Medford,MA,Middlesex County,US
2460,42.351824,-71.20849,1,4,3,3,1,5,Newtonville,MA,Middlesex County,US
2148,42.436545,-71.085396,3,3,4,5,2,1,Malden,MA,Middlesex County,US
2139,42.365146,-71.101842,4,2,4,4,4,3,Cambridge,MA,Middlesex County,US
54915,44.243138,-88.356058,6,5,3,5,6,5,Appleton,WI,Outagamie County,US
2148,42.436545,-71.085396,1,2,3,4,7,1,Malden,MA,Middlesex County,US
2139,42.365146,-71.101842,1,5,5,5,4,6,Cambridge,MA,Middlesex County,US
2128,42.364197,-71.025694,6,2,3,4,4,2,Boston,MA,Suffolk County,US
1760,42.28343,-71.3495,1,5,5,5,3,3,Natick,MA,Middlesex County,US
2114,42.363175,-71.068646,2,5,5,5,3,3,Boston,MA,Suffolk County,US
2145,42.391046,-71.095146,1,3,4,4,6,2,Somerville,MA,Middlesex County,US
1801,42.488595,-71.157271,6,5,5,5,6,2,Woburn,MA,Middlesex County,US
2186,42.240598,-71.078494,3,3,4,5,10,5,Milton,MA,Norfolk County,US
2136,42.254248,-71.129321,1,4,4,5,6,4,Hyde Park,MA,Suffolk County,US
1760,42.28343,-71.3495,2,5,5,5,7,6,Natick,MA,Middlesex County,US
2188,42.20794,-70.95514,4,5,5,4,6,4,Weymouth,MA,Norfolk County,US
2492,42.279797,-71.25006,1,5,5,5,7,3,Needham,MA,Norfolk County,US
2459,42.334146,-71.183298,3,3,3,5,3,4,Newton Center,MA,Middlesex County,US
